[
  {
    "cluster_label":0,
    "lat":19.4869,
    "lon":-99.1838,
    "risk_index":3.0,
    "location_name":"Azcapotzalco",
    "estimated_total_reports":900
  },
  {
    "cluster_label":1,
    "lat":19.4869,
    "lon":-99.1838,
    "risk_index":1.0,
    "location_name":"Azcapotzalco",
    "estimated_total_reports":900
  },
  {
    "cluster_label":2,
    "lat":19.3467,
    "lon":-99.1617,
    "risk_index":3.0,
    "location_name":"Coyoac\u00e1n",
    "estimated_total_reports":1410
  },
  {
    "cluster_label":3,
    "lat":19.3467,
    "lon":-99.1617,
    "risk_index":1.0,
    "location_name":"Coyoac\u00e1n",
    "estimated_total_reports":1410
  },
  {
    "cluster_label":4,
    "lat":19.3556,
    "lon":-99.2914,
    "risk_index":3.0,
    "location_name":"Cuajimalpa de Morelos",
    "estimated_total_reports":0
  },
  {
    "cluster_label":5,
    "lat":19.3556,
    "lon":-99.2914,
    "risk_index":2.0,
    "location_name":"Cuajimalpa de Morelos",
    "estimated_total_reports":0
  },
  {
    "cluster_label":6,
    "lat":19.4819,
    "lon":-99.1094,
    "risk_index":3.0,
    "location_name":"Gustavo A. Madero",
    "estimated_total_reports":300
  },
  {
    "cluster_label":7,
    "lat":19.4819,
    "lon":-99.1094,
    "risk_index":1.0,
    "location_name":"Gustavo A. Madero",
    "estimated_total_reports":300
  },
  {
    "cluster_label":8,
    "lat":19.4096,
    "lon":-99.10245,
    "risk_index":3.0,
    "location_name":"Iztacalco",
    "estimated_total_reports":0
  },
  {
    "cluster_label":9,
    "lat":19.4096,
    "lon":-99.10245,
    "risk_index":1.0,
    "location_name":"Iztacalco",
    "estimated_total_reports":0
  },
  {
    "cluster_label":10,
    "lat":19.355,
    "lon":-99.063,
    "risk_index":3.0,
    "location_name":"Iztapalapa",
    "estimated_total_reports":4020
  },
  {
    "cluster_label":11,
    "lat":19.3221,
    "lon":-99.231,
    "risk_index":3.0,
    "location_name":"La Magdalena Contreras",
    "estimated_total_reports":0
  },
  {
    "cluster_label":12,
    "lat":19.3221,
    "lon":-99.231,
    "risk_index":2.0,
    "location_name":"La Magdalena Contreras",
    "estimated_total_reports":0
  },
  {
    "cluster_label":13,
    "lat":19.1924,
    "lon":-99.023,
    "risk_index":3.0,
    "location_name":"Milpa Alta",
    "estimated_total_reports":0
  },
  {
    "cluster_label":14,
    "lat":19.3594,
    "lon":-99.2029,
    "risk_index":3.0,
    "location_name":"\u00c1lvaro Obreg\u00f3n",
    "estimated_total_reports":840
  },
  {
    "cluster_label":15,
    "lat":19.3594,
    "lon":-99.2029,
    "risk_index":2.0,
    "location_name":"\u00c1lvaro Obreg\u00f3n",
    "estimated_total_reports":840
  },
  {
    "cluster_label":16,
    "lat":19.2869,
    "lon":-99.003,
    "risk_index":3.0,
    "location_name":"Tl\u00e1huac",
    "estimated_total_reports":1200
  },
  {
    "cluster_label":17,
    "lat":19.2897,
    "lon":-99.1679,
    "risk_index":3.0,
    "location_name":"Tlalpan",
    "estimated_total_reports":2580
  },
  {
    "cluster_label":18,
    "lat":19.2897,
    "lon":-99.1679,
    "risk_index":2.0,
    "location_name":"Tlalpan",
    "estimated_total_reports":2580
  },
  {
    "cluster_label":19,
    "lat":19.2608,
    "lon":-99.1039,
    "risk_index":3.0,
    "location_name":"Xochimilco",
    "estimated_total_reports":540
  },
  {
    "cluster_label":20,
    "lat":19.2608,
    "lon":-99.1039,
    "risk_index":2.0,
    "location_name":"Xochimilco",
    "estimated_total_reports":540
  },
  {
    "cluster_label":21,
    "lat":19.3984,
    "lon":-99.1676,
    "risk_index":3.0,
    "location_name":"Benito Ju\u00e1rez",
    "estimated_total_reports":870
  },
  {
    "cluster_label":22,
    "lat":19.3984,
    "lon":-99.1676,
    "risk_index":1.0,
    "location_name":"Benito Ju\u00e1rez",
    "estimated_total_reports":870
  },
  {
    "cluster_label":23,
    "lat":19.4326,
    "lon":-99.1332,
    "risk_index":3.0,
    "location_name":"Cuauht\u00e9moc",
    "estimated_total_reports":1350
  },
  {
    "cluster_label":24,
    "lat":19.4326,
    "lon":-99.1332,
    "risk_index":1.0,
    "location_name":"Cuauht\u00e9moc",
    "estimated_total_reports":1350
  },
  {
    "cluster_label":25,
    "lat":19.4329,
    "lon":-99.2036,
    "risk_index":3.0,
    "location_name":"Miguel Hidalgo",
    "estimated_total_reports":810
  },
  {
    "cluster_label":26,
    "lat":19.4329,
    "lon":-99.2036,
    "risk_index":1.0,
    "location_name":"Miguel Hidalgo",
    "estimated_total_reports":810
  }
]